name,latitude,longitude,user
Fav Harbour: Victoria Harbour,22.28967,114.1711443,10002
Fav Market: Ladies Market,22.317738,114.1709499,10002
Fav Beach: Repulse Bay,22.23692921,114.1966939,10002
Fav Park: Victoria Park,22.28257772,114.1887082,10002
Fav Restaurant: Tim Ho Wan Dim Sum,22.28482216,114.1581666,10002
